{"Africa/Abidjan":{"lat":"5.320357","lng":"-4.016107","utcOffset":0,"continent":"Africa","place":"Abidjan"},"Africa/Accra":{"lat":"5.5571096","lng":"-0.2012376","utcOffset":0,"continent":"Africa","place":"Accra"},"America/Adak":{"lat":"51.8666057","lng":"-176.64575","utcOffset":-9,"continent":"America","place":"Adak"},"Australia/Adelaide":{"lat":"-34.9281805","lng":"138.5999312","utcOffset":-14.5,"continent":"Australia","place":"Adelaide"},"Africa/Algiers":{"lat":"36.7753606","lng":"3.0601882","utcOffset":1,"continent":"Africa","place":"Algiers"},"Asia/Almaty":{"lat":"43.2363924","lng":"76.9457275","utcOffset":-18,"continent":"Asia","place":"Almaty"},"Asia/Amman":{"lat":"31.9515694","lng":"35.9239625","utcOffset":3,"continent":"Asia","place":"Amman"},"Europe/Amsterdam":{"lat":"52.3727598","lng":"4.8936041","utcOffset":2,"continent":"Europe","place":"Amsterdam"},"Asia/Anadyr":{"lat":"64.7316875","lng":"177.5060925","utcOffset":-12,"continent":"Asia","place":"Anadyr"},"America/Anchorage":{"lat":"61.2163129","lng":"-149.894852","utcOffset":-8,"continent":"America","place":"Anchorage"},"Europe/Andorra":{"lat":"42.5069391","lng":"1.5212467","utcOffset":2,"continent":"Europe","place":"Andorra"},"Pacific/Apia":{"lat":"-13.8343691","lng":"-171.7692793","utcOffset":-11,"continent":"Pacific","place":"Apia"},"Asia/Aqtau":{"lat":"43.652058","lng":"51.157997","utcOffset":5,"continent":"Asia","place":"Aqtau"},"Asia/Aqtobe":{"lat":"50.2741046","lng":"57.22528851444498","utcOffset":5,"continent":"Asia","place":"Aqtobe"},"America/Araguaina":{"lat":"-7.193241","lng":"-48.2018597","utcOffset":-3,"continent":"America","place":"Araguaina"},"Asia/Ashgabat":{"lat":"37.9404648","lng":"58.3823487","utcOffset":5,"continent":"Asia","place":"Ashgabat"},"Europe/Astrakhan":{"lat":"46.3652486","lng":"48.05521686177834","utcOffset":4,"continent":"Europe","place":"Astrakhan"},"America/Asuncion":{"lat":"-25.2800459","lng":"-57.6343814","utcOffset":-4,"continent":"America","place":"Asuncion"},"Europe/Athens":{"lat":"37.9839412","lng":"23.7283052","utcOffset":3,"continent":"Europe","place":"Athens"},"America/Atikokan":{"lat":"48.762526","lng":"-91.624603","utcOffset":-5,"continent":"America","place":"Atikokan"},"Asia/Atyrau":{"lat":"47.1067183","lng":"51.9138976","utcOffset":5,"continent":"Asia","place":"Atyrau"},"Pacific/Auckland":{"lat":"-36.852095","lng":"174.7631803","utcOffset":-12,"continent":"Pacific","place":"Auckland"},"Atlantic/Azores":{"lat":"37.4675599","lng":"-4.1826067","utcOffset":0,"continent":"Atlantic","place":"Azores"},"Asia/Baghdad":{"lat":"33.3024309","lng":"44.3787992","utcOffset":3,"continent":"Asia","place":"Baghdad"},"America/Bahia":{"lat":"-21.3770591","lng":"-44.4949186","utcOffset":-3,"continent":"America","place":"Bahia"},"America/Bahia_Banderas":{"lat":null,"lng":null,"utcOffset":-5,"continent":"America","place":"Bahia Banderas"},"Asia/Baku":{"lat":"40.3754434","lng":"49.8326748","utcOffset":4,"continent":"Asia","place":"Baku"},"Asia/Bangkok":{"lat":"13.7525438","lng":"100.4934734","utcOffset":-17,"continent":"Asia","place":"Bangkok"},"America/Barbados":{"lat":"13.189946299999999","lng":"-59.559215109754064","utcOffset":-4,"continent":"America","place":"Barbados"},"Asia/Barnaul":{"lat":"53.347402","lng":"83.7784496","utcOffset":-17,"continent":"Asia","place":"Barnaul"},"Asia/Beirut":{"lat":"33.8959203","lng":"35.47843","utcOffset":3,"continent":"Asia","place":"Beirut"},"America/Belem":{"lat":"31.7043556","lng":"35.2061876","utcOffset":-3,"continent":"America","place":"Belem"},"Europe/Belgrade":{"lat":"44.8178131","lng":"20.4568974","utcOffset":2,"continent":"Europe","place":"Belgrade"},"America/Belize":{"lat":"17.5000543","lng":"-88.2003115","utcOffset":-6,"continent":"America","place":"Belize"},"Europe/Berlin":{"lat":"52.5170365","lng":"13.3888599","utcOffset":2,"continent":"Europe","place":"Berlin"},"Atlantic/Bermuda":{"lat":"32.3018217","lng":"-64.7603583","utcOffset":-3,"continent":"Atlantic","place":"Bermuda"},"America/North_Dakota/Beulah":{"lat":"47.26334","lng":"-101.777946","utcOffset":-5,"continent":"America/North Dakota","place":"Beulah"},"Asia/Bishkek":{"lat":"42.8765615","lng":"74.6070079","utcOffset":-18,"continent":"Asia","place":"Bishkek"},"Africa/Bissau":{"lat":"11.861324","lng":"-15.583055","utcOffset":0,"continent":"Africa","place":"Bissau"},"America/Blanc-Sablon":{"lat":"51.4121624","lng":"-57.2018488","utcOffset":-4,"continent":"America","place":"Blanc-Sablon"},"America/Boa_Vista":{"lat":"2.8208478","lng":"-60.6719582","utcOffset":-4,"continent":"America","place":"Boa Vista"},"America/Bogota":{"lat":"4.6533326","lng":"-74.083652","utcOffset":-5,"continent":"America","place":"Bogota"},"America/Boise":{"lat":"43.6166163","lng":"-116.200886","utcOffset":-6,"continent":"America","place":"Boise"},"Pacific/Bougainville":{"lat":"49.8699135","lng":"2.0432341","utcOffset":-13,"continent":"Pacific","place":"Bougainville"},"Australia/Brisbane":{"lat":"-27.4689682","lng":"153.0234991","utcOffset":-14,"continent":"Australia","place":"Brisbane"},"Australia/Broken_Hill":{"lat":"-31.965","lng":"141.4511111","utcOffset":-14.5,"continent":"Australia","place":"Broken Hill"},"Asia/Brunei":{"lat":"4.9450503","lng":"114.92670915502292","utcOffset":-16,"continent":"Asia","place":"Brunei"},"Europe/Brussels":{"lat":"50.8465573","lng":"4.351697","utcOffset":2,"continent":"Europe","place":"Brussels"},"Europe/Bucharest":{"lat":"44.4361414","lng":"26.1027202","utcOffset":3,"continent":"Europe","place":"Bucharest"},"Europe/Budapest":{"lat":"47.4979937","lng":"19.0403594","utcOffset":2,"continent":"Europe","place":"Budapest"},"America/Argentina/Buenos_Aires":{"lat":"-34.6075682","lng":"-58.4370894","utcOffset":-3,"continent":"America/Argentina","place":"Buenos Aires"},"Africa/Cairo":{"lat":"30.0443879","lng":"31.2357257","utcOffset":2,"continent":"Africa","place":"Cairo"},"America/Cambridge_Bay":{"lat":"69.1126414","lng":"-105.0615077","utcOffset":-6,"continent":"America","place":"Cambridge Bay"},"America/Campo_Grande":{"lat":"-20.4640173","lng":"-54.6162947","utcOffset":-4,"continent":"America","place":"Campo Grande"},"Atlantic/Canary":{"lat":"30.9935206","lng":"-96.1782927","utcOffset":1,"continent":"Atlantic","place":"Canary"},"America/Cancun":{"lat":"43.8130735","lng":"125.3171216","utcOffset":-5,"continent":"America","place":"Cancun"},"Atlantic/Cape_Verde":{"lat":"17.05552855","lng":"-25.172304911363636","utcOffset":-1,"continent":"Atlantic","place":"Cape Verde"},"America/Caracas":{"lat":"10.506098","lng":"-66.9146017","utcOffset":-4,"continent":"America","place":"Caracas"},"Africa/Casablanca":{"lat":"33.5950627","lng":"-7.6187768","utcOffset":1,"continent":"Africa","place":"Casablanca"},"Antarctica/Casey":{"lat":"41.5051917","lng":"-94.5193809","utcOffset":-13,"continent":"Antarctica","place":"Casey"},"America/Argentina/Catamarca":{"lat":"-28.4689063","lng":"-65.7790719","utcOffset":-3,"continent":"America/Argentina","place":"Catamarca"},"America/Cayenne":{"lat":"4.9371143","lng":"-52.3258307","utcOffset":-3,"continent":"America","place":"Cayenne"},"America/North_Dakota/Center":{"lat":"31.7952814","lng":"-94.1803576","utcOffset":-5,"continent":"America/North Dakota","place":"Center"},"Africa/Ceuta":{"lat":"35.888361","lng":"-5.304138","utcOffset":2,"continent":"Africa","place":"Ceuta"},"Indian/Chagos":{"lat":"-6.684760900000001","lng":"71.38324996004206","utcOffset":-18,"continent":"Indian","place":"Chagos"},"Pacific/Chatham":{"lat":"51.3804845","lng":"0.5292758","utcOffset":-11.25,"continent":"Pacific","place":"Chatham"},"America/Chicago":{"lat":"41.8755616","lng":"-87.6244212","utcOffset":-5,"continent":"America","place":"Chicago"},"America/Chihuahua":{"lat":"28.6523808","lng":"-106.0902046","utcOffset":-6,"continent":"America","place":"Chihuahua"},"Europe/Chisinau":{"lat":"47.0245117","lng":"28.8322923","utcOffset":3,"continent":"Europe","place":"Chisinau"},"Asia/Chita":{"lat":"52.033409","lng":"113.500893","utcOffset":-15,"continent":"Asia","place":"Chita"},"Asia/Choibalsan":{"lat":"48.0688183","lng":"114.5241352","utcOffset":-16,"continent":"Asia","place":"Choibalsan"},"Indian/Christmas":{"lat":"46.4369236","lng":"-86.7019125","utcOffset":-17,"continent":"Indian","place":"Christmas"},"Pacific/Chuuk":{"lat":"7.3885268","lng":"151.6578155","utcOffset":-14,"continent":"Pacific","place":"Chuuk"},"Indian/Cocos":{"lat":"-14.1811222","lng":"-44.5382117","utcOffset":-17.5,"continent":"Indian","place":"Cocos"},"Asia/Colombo":{"lat":"6.9387469","lng":"79.8541134","utcOffset":-18.5,"continent":"Asia","place":"Colombo"},"Europe/Copenhagen":{"lat":"55.6867243","lng":"12.5700724","utcOffset":2,"continent":"Europe","place":"Copenhagen"},"America/Argentina/Cordoba":{"lat":"37.8845813","lng":"-4.7760138","utcOffset":-3,"continent":"America/Argentina","place":"Cordoba"},"America/Costa_Rica":{"lat":"9.9325427","lng":"-84.0795782","utcOffset":-6,"continent":"America","place":"Costa Rica"},"America/Creston":{"lat":"41.0585878","lng":"-94.361397","utcOffset":-7,"continent":"America","place":"Creston"},"America/Cuiaba":{"lat":"-15.5986686","lng":"-56.0991301","utcOffset":-4,"continent":"America","place":"Cuiaba"},"America/Curacao":{"lat":"12.21339425","lng":"-69.0408499890865","utcOffset":-4,"continent":"America","place":"Curacao"},"Australia/Currie":{"lat":"44.071351","lng":"-95.666399","utcOffset":-14,"continent":"Australia","place":"Currie"},"Asia/Damascus":{"lat":"33.5130695","lng":"36.3095814","utcOffset":3,"continent":"Asia","place":"Damascus"},"America/Danmarkshavn":{"lat":"76.769517","lng":"-18.6736769","utcOffset":0,"continent":"America","place":"Danmarkshavn"},"Australia/Darwin":{"lat":"-12.46044","lng":"130.8410469","utcOffset":-14.5,"continent":"Australia","place":"Darwin"},"Antarctica/Davis":{"lat":"38.545379","lng":"-121.744583","utcOffset":-17,"continent":"Antarctica","place":"Davis"},"America/Dawson":{"lat":"41.8436976","lng":"-94.2218763","utcOffset":-7,"continent":"America","place":"Dawson"},"America/Dawson_Creek":{"lat":"55.7605306","lng":"-120.2364453","utcOffset":-7,"continent":"America","place":"Dawson Creek"},"America/Denver":{"lat":"39.7392364","lng":"-104.9848623","utcOffset":-6,"continent":"America","place":"Denver"},"America/Detroit":{"lat":"42.3315509","lng":"-83.0466403","utcOffset":-4,"continent":"America","place":"Detroit"},"Asia/Dhaka":{"lat":"23.7644025","lng":"90.389015","utcOffset":-18,"continent":"Asia","place":"Dhaka"},"Asia/Dili":{"lat":"-8.5536809","lng":"125.5784093","utcOffset":-15,"continent":"Asia","place":"Dili"},"Asia/Dubai":{"lat":"25.2653471","lng":"55.2924914","utcOffset":4,"continent":"Asia","place":"Dubai"},"Europe/Dublin":{"lat":"53.3497645","lng":"-6.2602732","utcOffset":1,"continent":"Europe","place":"Dublin"},"Antarctica/DumontDUrville":{"lat":null,"lng":null,"utcOffset":-14,"continent":"Antarctica","place":"DumontDUrville"},"Asia/Dushanbe":{"lat":"38.5425835","lng":"68.81521423589763","utcOffset":5,"continent":"Asia","place":"Dushanbe"},"Pacific/Easter":{"lat":"34.6456223","lng":"-102.3968676","utcOffset":-6,"continent":"Pacific","place":"Easter"},"America/Edmonton":{"lat":"53.535411","lng":"-113.507996","utcOffset":-6,"continent":"America","place":"Edmonton"},"Pacific/Efate":{"lat":"-17.6739005","lng":"168.3648386132254","utcOffset":-13,"continent":"Pacific","place":"Efate"},"America/Eirunepe":{"lat":"-6.6567654","lng":"-69.866161","utcOffset":-5,"continent":"America","place":"Eirunepe"},"Africa/El_Aaiun":{"lat":"27.154512","lng":"-13.1953921","utcOffset":1,"continent":"Africa","place":"El Aaiun"},"America/El_Salvador":{"lat":"-26.2462114","lng":"-69.6259658","utcOffset":-6,"continent":"America","place":"El Salvador"},"Pacific/Enderbury":{"lat":"-3.1253105999999997","lng":"-171.08606879044203","utcOffset":-11,"continent":"Pacific","place":"Enderbury"},"Australia/Eucla":{"lat":"-31.6768407","lng":"128.8865164","utcOffset":-15.25,"continent":"Australia","place":"Eucla"},"Pacific/Fakaofo":{"lat":"-9.3743046","lng":"-171.2645365","utcOffset":-11,"continent":"Pacific","place":"Fakaofo"},"Asia/Famagusta":{"lat":"35.1245436","lng":"33.9325419","utcOffset":3,"continent":"Asia","place":"Famagusta"},"Atlantic/Faroe":{"lat":"62.19850045","lng":"-6.817412433412175","utcOffset":1,"continent":"Atlantic","place":"Faroe"},"Pacific/Fiji":{"lat":"44.55220515","lng":"-78.16900113841923","utcOffset":-12,"continent":"Pacific","place":"Fiji"},"America/Fortaleza":{"lat":"-3.7304512","lng":"-38.5217989","utcOffset":-3,"continent":"America","place":"Fortaleza"},"America/Fort_Nelson":{"lat":"58.8062066","lng":"-122.6942704","utcOffset":-7,"continent":"America","place":"Fort Nelson"},"Pacific/Funafuti":{"lat":"-8.5199633","lng":"179.1982548","utcOffset":-12,"continent":"Pacific","place":"Funafuti"},"Pacific/Galapagos":{"lat":"-0.62881505","lng":"-90.3638752022324","utcOffset":-6,"continent":"Pacific","place":"Galapagos"},"Pacific/Gambier":{"lat":"-23.346037000000003","lng":"-134.48059013950922","utcOffset":-9,"continent":"Pacific","place":"Gambier"},"Asia/Gaza":{"lat":"31.5128679","lng":"34.4581358","utcOffset":3,"continent":"Asia","place":"Gaza"},"Europe/Gibraltar":{"lat":"36.140807","lng":"-5.3541295","utcOffset":2,"continent":"Europe","place":"Gibraltar"},"America/Glace_Bay":{"lat":"46.1949393","lng":"-59.9561999","utcOffset":-3,"continent":"America","place":"Glace Bay"},"America/Godthab":{"lat":"64.175029","lng":"-51.7355386","utcOffset":-2,"continent":"America","place":"Godthab"},"America/Goose_Bay":{"lat":"53.333333","lng":"-60.416667","utcOffset":-3,"continent":"America","place":"Goose Bay"},"America/Grand_Turk":{"lat":"21.467964000000002","lng":"-71.13872175290959","utcOffset":-4,"continent":"America","place":"Grand Turk"},"Pacific/Guadalcanal":{"lat":"-9.59842095","lng":"160.1485117018448","utcOffset":-13,"continent":"Pacific","place":"Guadalcanal"},"Pacific/Guam":{"lat":"13.450125700000001","lng":"144.75755102972062","utcOffset":-14,"continent":"Pacific","place":"Guam"},"America/Guatemala":{"lat":"14.6222328","lng":"-90.5185188","utcOffset":-6,"continent":"America","place":"Guatemala"},"America/Guayaquil":{"lat":"-2.1900563","lng":"-79.8868741","utcOffset":-5,"continent":"America","place":"Guayaquil"},"America/Guyana":{"lat":"6.8137426","lng":"-58.1624465","utcOffset":-4,"continent":"America","place":"Guyana"},"America/Halifax":{"lat":"44.648618","lng":"-63.5859487","utcOffset":-3,"continent":"America","place":"Halifax"},"America/Havana":{"lat":"23.135305","lng":"-82.3589631","utcOffset":-4,"continent":"America","place":"Havana"},"Asia/Hebron":{"lat":"31.528902","lng":"35.0944873","utcOffset":3,"continent":"Asia","place":"Hebron"},"Europe/Helsinki":{"lat":"60.1674881","lng":"24.9427473","utcOffset":3,"continent":"Europe","place":"Helsinki"},"America/Hermosillo":{"lat":"29.0948207","lng":"-110.9692202","utcOffset":-7,"continent":"America","place":"Hermosillo"},"Australia/Hobart":{"lat":"-42.8825088","lng":"147.3281233","utcOffset":-14,"continent":"Australia","place":"Hobart"},"Asia/Hong_Kong":{"lat":"22.2793278","lng":"114.1628131","utcOffset":-16,"continent":"Asia","place":"Hong Kong"},"Pacific/Honolulu":{"lat":"21.2890997","lng":"-157.717299","utcOffset":-10,"continent":"Pacific","place":"Honolulu"},"Asia/Hovd":{"lat":"48.0006353","lng":"91.6452415","utcOffset":-17,"continent":"Asia","place":"Hovd"},"Asia/Ho_Chi_Minh":{"lat":"10.7758439","lng":"106.7017555","utcOffset":-17,"continent":"Asia","place":"Ho Chi Minh"},"America/Indiana/Indianapolis":{"lat":"39.7683331","lng":"-86.1583502","utcOffset":-4,"continent":"America/Indiana","place":"Indianapolis"},"America/Inuvik":{"lat":"68.3602632","lng":"-133.7203869","utcOffset":-6,"continent":"America","place":"Inuvik"},"America/Iqaluit":{"lat":"63.74944","lng":"-68.521857","utcOffset":-4,"continent":"America","place":"Iqaluit"},"Asia/Irkutsk":{"lat":"52.289597","lng":"104.280586","utcOffset":-16,"continent":"Asia","place":"Irkutsk"},"Europe/Istanbul":{"lat":"41.0091982","lng":"28.9662187","utcOffset":3,"continent":"Europe","place":"Istanbul"},"Asia/Jakarta":{"lat":"-6.1753942","lng":"106.827183","utcOffset":-17,"continent":"Asia","place":"Jakarta"},"America/Jamaica":{"lat":"40.7029134","lng":"-73.8006429","utcOffset":-5,"continent":"America","place":"Jamaica"},"Asia/Jayapura":{"lat":"-2.5387539","lng":"140.7037389","utcOffset":-15,"continent":"Asia","place":"Jayapura"},"Asia/Jerusalem":{"lat":"31.7788242","lng":"35.2257626","utcOffset":3,"continent":"Asia","place":"Jerusalem"},"Africa/Johannesburg":{"lat":"-26.205","lng":"28.049722","utcOffset":2,"continent":"Africa","place":"Johannesburg"},"Africa/Juba":{"lat":"4.8472017","lng":"31.5951655","utcOffset":2,"continent":"Africa","place":"Juba"},"America/Argentina/Jujuy":{"lat":null,"lng":null,"utcOffset":-3,"continent":"America/Argentina","place":"Jujuy"},"America/Juneau":{"lat":"58.3019496","lng":"-134.419734","utcOffset":-8,"continent":"America","place":"Juneau"},"Asia/Kabul":{"lat":"34.5260109","lng":"69.1776838","utcOffset":4.5,"continent":"Asia","place":"Kabul"},"Europe/Kaliningrad":{"lat":"54.710128","lng":"20.5105838","utcOffset":2,"continent":"Europe","place":"Kaliningrad"},"Asia/Kamchatka":{"lat":"44.7088397","lng":"37.634124392892076","utcOffset":-12,"continent":"Asia","place":"Kamchatka"},"Asia/Karachi":{"lat":"24.8546842","lng":"67.0207055","utcOffset":5,"continent":"Asia","place":"Karachi"},"Asia/Kathmandu":{"lat":"27.708317","lng":"85.3205817","utcOffset":-18.25,"continent":"Asia","place":"Kathmandu"},"Indian/Kerguelen":{"lat":"-49.237441950000004","lng":"69.62275903679347","utcOffset":5,"continent":"Indian","place":"Kerguelen"},"Asia/Khandyga":{"lat":"62.6477939","lng":"135.5750942","utcOffset":-15,"continent":"Asia","place":"Khandyga"},"Africa/Khartoum":{"lat":"15.5635972","lng":"32.5349123","utcOffset":2,"continent":"Africa","place":"Khartoum"},"Europe/Kiev":{"lat":"50.4500336","lng":"30.5241361","utcOffset":3,"continent":"Europe","place":"Kiev"},"Pacific/Kiritimati":{"lat":"1.8709601500000002","lng":"-157.4351584789303","utcOffset":-10,"continent":"Pacific","place":"Kiritimati"},"Europe/Kirov":{"lat":"58.6035661","lng":"49.6666241","utcOffset":3,"continent":"Europe","place":"Kirov"},"America/Indiana/Knox":{"lat":"41.2958751","lng":"-86.6250139","utcOffset":-5,"continent":"America/Indiana","place":"Knox"},"Asia/Kolkata":{"lat":"22.5726723","lng":"88.3638815","utcOffset":-18.5,"continent":"Asia","place":"Kolkata"},"Pacific/Kosrae":{"lat":"5.314262149999999","lng":"162.9811154168676","utcOffset":-13,"continent":"Pacific","place":"Kosrae"},"Asia/Krasnoyarsk":{"lat":"56.0090968","lng":"92.8725147","utcOffset":-17,"continent":"Asia","place":"Krasnoyarsk"},"Asia/Kuala_Lumpur":{"lat":"3.1516964","lng":"101.6942371","utcOffset":-16,"continent":"Asia","place":"Kuala Lumpur"},"Asia/Kuching":{"lat":"1.5574127","lng":"110.3439862","utcOffset":-16,"continent":"Asia","place":"Kuching"},"Pacific/Kwajalein":{"lat":"9.1257934","lng":"167.5740472","utcOffset":-12,"continent":"Pacific","place":"Kwajalein"},"Africa/Lagos":{"lat":"43.2083246","lng":"-0.2252442","utcOffset":1,"continent":"Africa","place":"Lagos"},"America/La_Paz":{"lat":"-16.4955455","lng":"-68.1336229","utcOffset":-4,"continent":"America","place":"La Paz"},"America/Argentina/La_Rioja":{"lat":"-29.4127411","lng":"-66.8558795","utcOffset":-3,"continent":"America/Argentina","place":"La Rioja"},"America/Lima":{"lat":"-12.0621065","lng":"-77.0365256","utcOffset":-5,"continent":"America","place":"Lima"},"Australia/Lindeman":{"lat":"59.7846316","lng":"-135.0811715","utcOffset":-14,"continent":"Australia","place":"Lindeman"},"Europe/Lisbon":{"lat":"38.7077507","lng":"-9.1365919","utcOffset":1,"continent":"Europe","place":"Lisbon"},"Europe/London":{"lat":"51.5073219","lng":"-0.1276474","utcOffset":1,"continent":"Europe","place":"London"},"Australia/Lord_Howe":{"lat":null,"lng":null,"utcOffset":-13.5,"continent":"Australia","place":"Lord Howe"},"America/Los_Angeles":{"lat":"34.0536909","lng":"-118.242766","utcOffset":-7,"continent":"America","place":"Los Angeles"},"America/Kentucky/Louisville":{"lat":"38.2542376","lng":"-85.759407","utcOffset":-4,"continent":"America/Kentucky","place":"Louisville"},"Europe/Luxembourg":{"lat":"49.6112768","lng":"6.129799","utcOffset":2,"continent":"Europe","place":"Luxembourg"},"Asia/Macau":{"lat":"45.008","lng":"-0.61502","utcOffset":-16,"continent":"Asia","place":"Macau"},"America/Maceio":{"lat":"-9.6476843","lng":"-35.7339264","utcOffset":-3,"continent":"America","place":"Maceio"},"Antarctica/Macquarie":{"lat":"-54.6318143","lng":"158.86175758410565","utcOffset":-14,"continent":"Antarctica","place":"Macquarie"},"Atlantic/Madeira":{"lat":"32.751748750000004","lng":"-16.981752048847362","utcOffset":1,"continent":"Atlantic","place":"Madeira"},"Europe/Madrid":{"lat":"40.4167047","lng":"-3.7035825","utcOffset":2,"continent":"Europe","place":"Madrid"},"Asia/Magadan":{"lat":"59.5604768","lng":"150.7988617","utcOffset":-13,"continent":"Asia","place":"Magadan"},"Indian/Mahe":{"lat":"11.7021978","lng":"75.5364701","utcOffset":4,"continent":"Indian","place":"Mahe"},"Pacific/Majuro":{"lat":"7.0909924","lng":"171.3816354","utcOffset":-12,"continent":"Pacific","place":"Majuro"},"Asia/Makassar":{"lat":"-5.1342962","lng":"119.4124282","utcOffset":-16,"continent":"Asia","place":"Makassar"},"Indian/Maldives":{"lat":"2.91135615","lng":"72.86607553300266","utcOffset":5,"continent":"Indian","place":"Maldives"},"Europe/Malta":{"lat":"35.90221125","lng":"14.413771221238456","utcOffset":2,"continent":"Europe","place":"Malta"},"America/Managua":{"lat":"12.1459907","lng":"-86.2746665","utcOffset":-6,"continent":"America","place":"Managua"},"America/Manaus":{"lat":"-3.1316333","lng":"-59.9825041","utcOffset":-4,"continent":"America","place":"Manaus"},"Asia/Manila":{"lat":"14.5948914","lng":"120.9782618","utcOffset":-16,"continent":"Asia","place":"Manila"},"Africa/Maputo":{"lat":"-25.966213","lng":"32.56745","utcOffset":2,"continent":"Africa","place":"Maputo"},"America/Indiana/Marengo":{"lat":"41.8001041","lng":"-92.069382","utcOffset":-4,"continent":"America/Indiana","place":"Marengo"},"Pacific/Marquesas":{"lat":"-9.73116465","lng":"-138.9787470714598","utcOffset":-9.5,"continent":"Pacific","place":"Marquesas"},"America/Martinique":{"lat":"14.6367927","lng":"-61.01582685063731","utcOffset":-4,"continent":"America","place":"Martinique"},"America/Matamoros":{"lat":"25.8520977","lng":"-97.5017951","utcOffset":-5,"continent":"America","place":"Matamoros"},"Indian/Mauritius":{"lat":"-20.0958533","lng":"57.6349749","utcOffset":4,"continent":"Indian","place":"Mauritius"},"Antarctica/Mawson":{"lat":"-35.3633679","lng":"149.0988944","utcOffset":5,"continent":"Antarctica","place":"Mawson"},"America/Mazatlan":{"lat":"23.2313053","lng":"-106.4153144","utcOffset":-6,"continent":"America","place":"Mazatlan"},"Australia/Melbourne":{"lat":"-37.8142176","lng":"144.9631608","utcOffset":-14,"continent":"Australia","place":"Melbourne"},"America/Argentina/Mendoza":{"lat":"-32.8894155","lng":"-68.8446177","utcOffset":-3,"continent":"America/Argentina","place":"Mendoza"},"America/Menominee":{"lat":"42.4878856","lng":"-90.5328697","utcOffset":-5,"continent":"America","place":"Menominee"},"America/Merida":{"lat":"38.9174665","lng":"-6.3443977","utcOffset":-5,"continent":"America","place":"Merida"},"America/Metlakatla":{"lat":"55.1264094","lng":"-131.57846","utcOffset":-8,"continent":"America","place":"Metlakatla"},"America/Mexico_City":{"lat":"19.4326296","lng":"-99.1331785","utcOffset":-5,"continent":"America","place":"Mexico City"},"Europe/Minsk":{"lat":"53.9024716","lng":"27.5618225","utcOffset":3,"continent":"Europe","place":"Minsk"},"America/Miquelon":{"lat":"47.04542505","lng":"-56.319062704929195","utcOffset":-2,"continent":"America","place":"Miquelon"},"Europe/Monaco":{"lat":"43.7311424","lng":"7.4197576","utcOffset":2,"continent":"Europe","place":"Monaco"},"America/Moncton":{"lat":"46.097995","lng":"-64.80011","utcOffset":-3,"continent":"America","place":"Moncton"},"Africa/Monrovia":{"lat":"6.328034","lng":"-10.797788","utcOffset":0,"continent":"Africa","place":"Monrovia"},"America/Monterrey":{"lat":"25.6802019","lng":"-100.315258","utcOffset":-5,"continent":"America","place":"Monterrey"},"America/Montevideo":{"lat":"-34.9058916","lng":"-56.1913095","utcOffset":-3,"continent":"America","place":"Montevideo"},"America/Kentucky/Monticello":{"lat":"42.6214159","lng":"8.96043915620514","utcOffset":-4,"continent":"America/Kentucky","place":"Monticello"},"Europe/Moscow":{"lat":"55.7504461","lng":"37.6174943","utcOffset":3,"continent":"Europe","place":"Moscow"},"Africa/Nairobi":{"lat":"-1.2832533","lng":"36.8172449","utcOffset":3,"continent":"Africa","place":"Nairobi"},"America/Nassau":{"lat":"25.0783456","lng":"-77.3383331","utcOffset":-4,"continent":"America","place":"Nassau"},"Pacific/Nauru":{"lat":"-0.52832605","lng":"166.93091238321813","utcOffset":-12,"continent":"Pacific","place":"Nauru"},"Africa/Ndjamena":{"lat":"12.1191543","lng":"15.0502758","utcOffset":1,"continent":"Africa","place":"Ndjamena"},"America/North_Dakota/New_Salem":{"lat":"39.7075473","lng":"-90.8476304","utcOffset":-5,"continent":"America/North Dakota","place":"New Salem"},"America/New_York":{"lat":"40.7127281","lng":"-74.0060152","utcOffset":-4,"continent":"America","place":"New York"},"Asia/Nicosia":{"lat":"35.1748976","lng":"33.3638568","utcOffset":3,"continent":"Asia","place":"Nicosia"},"America/Nipigon":{"lat":"49.0155918","lng":"-88.2610663","utcOffset":-4,"continent":"America","place":"Nipigon"},"Pacific/Niue":{"lat":"-19.05397155","lng":"-169.84923344074008","utcOffset":-11,"continent":"Pacific","place":"Niue"},"America/Nome":{"lat":"64.5011111","lng":"-165.4063889","utcOffset":-8,"continent":"America","place":"Nome"},"Pacific/Norfolk":{"lat":"36.8968052","lng":"-76.2602336","utcOffset":-13,"continent":"Pacific","place":"Norfolk"},"America/Noronha":{"lat":null,"lng":null,"utcOffset":-2,"continent":"America","place":"Noronha"},"Pacific/Noumea":{"lat":"-22.2745264","lng":"166.442419","utcOffset":-13,"continent":"Pacific","place":"Noumea"},"Asia/Novokuznetsk":{"lat":"53.757607","lng":"87.136101","utcOffset":-17,"continent":"Asia","place":"Novokuznetsk"},"Asia/Novosibirsk":{"lat":"55.0282171","lng":"82.9234509","utcOffset":-17,"continent":"Asia","place":"Novosibirsk"},"America/Ojinaga":{"lat":"29.5498622","lng":"-104.413936","utcOffset":-6,"continent":"America","place":"Ojinaga"},"Asia/Omsk":{"lat":"54.991375","lng":"73.371529","utcOffset":-18,"continent":"Asia","place":"Omsk"},"Asia/Oral":{"lat":"51.2040697","lng":"51.3707863","utcOffset":5,"continent":"Asia","place":"Oral"},"Europe/Oslo":{"lat":"59.9133301","lng":"10.7389701","utcOffset":2,"continent":"Europe","place":"Oslo"},"Pacific/Pago_Pago":{"lat":"-14.2754786","lng":"-170.7048298","utcOffset":-11,"continent":"Pacific","place":"Pago Pago"},"Pacific/Palau":{"lat":"42.5717989","lng":"2.9600905","utcOffset":-15,"continent":"Pacific","place":"Palau"},"Antarctica/Palmer":{"lat":"61.5995703","lng":"-149.11109","utcOffset":-3,"continent":"Antarctica","place":"Palmer"},"America/Panama":{"lat":"8.9714493","lng":"-79.5341802","utcOffset":-5,"continent":"America","place":"Panama"},"America/Pangnirtung":{"lat":"66.1480197","lng":"-65.7172826","utcOffset":-4,"continent":"America","place":"Pangnirtung"},"America/Paramaribo":{"lat":"5.8247628","lng":"-55.1703941","utcOffset":-3,"continent":"America","place":"Paramaribo"},"Europe/Paris":{"lat":"48.8588897","lng":"2.3200410217200766","utcOffset":2,"continent":"Europe","place":"Paris"},"Australia/Perth":{"lat":"-31.9558964","lng":"115.8605801","utcOffset":-16,"continent":"Australia","place":"Perth"},"America/Indiana/Petersburg":{"lat":"59.917857350000006","lng":"30.380619357025516","utcOffset":-4,"continent":"America/Indiana","place":"Petersburg"},"America/Phoenix":{"lat":"33.4484367","lng":"-112.074141","utcOffset":-7,"continent":"America","place":"Phoenix"},"Pacific/Pitcairn":{"lat":"-25.069632249999998","lng":"-130.1060205676272","utcOffset":-8,"continent":"Pacific","place":"Pitcairn"},"Pacific/Pohnpei":{"lat":"6.88704675","lng":"158.24061376394383","utcOffset":-13,"continent":"Pacific","place":"Pohnpei"},"Asia/Pontianak":{"lat":"-0.0226903","lng":"109.3447488","utcOffset":-17,"continent":"Asia","place":"Pontianak"},"America/Port-au-Prince":{"lat":"18.547327","lng":"-72.3395928","utcOffset":-4,"continent":"America","place":"Port-au-Prince"},"America/Porto_Velho":{"lat":"-8.7494525","lng":"-63.8735438","utcOffset":-4,"continent":"America","place":"Porto Velho"},"Pacific/Port_Moresby":{"lat":"-9.4743301","lng":"147.1599504","utcOffset":-14,"continent":"Pacific","place":"Port Moresby"},"America/Port_of_Spain":{"lat":"10.6572678","lng":"-61.5180173","utcOffset":-4,"continent":"America","place":"Port of Spain"},"Europe/Prague":{"lat":"50.0596288","lng":"14.446459273258009","utcOffset":2,"continent":"Europe","place":"Prague"},"America/Puerto_Rico":{"lat":"27.7865973","lng":"-15.7117774","utcOffset":-4,"continent":"America","place":"Puerto Rico"},"America/Punta_Arenas":{"lat":"-53.1625688","lng":"-70.907822","utcOffset":-3,"continent":"America","place":"Punta Arenas"},"Asia/Pyongyang":{"lat":"39.0167979","lng":"125.7473609","utcOffset":-15,"continent":"Asia","place":"Pyongyang"},"Asia/Qatar":{"lat":"39.1074426","lng":"47.5061085","utcOffset":3,"continent":"Asia","place":"Qatar"},"Asia/Qostanay":{"lat":"53.2146604","lng":"63.632607","utcOffset":-18,"continent":"Asia","place":"Qostanay"},"Asia/Qyzylorda":{"lat":"44.8426778","lng":"65.5036151","utcOffset":5,"continent":"Asia","place":"Qyzylorda"},"America/Rainy_River":{"lat":"48.722679","lng":"-94.564819","utcOffset":-5,"continent":"America","place":"Rainy River"},"America/Rankin_Inlet":{"lat":"62.8030269","lng":"-92.0868012","utcOffset":-5,"continent":"America","place":"Rankin Inlet"},"Pacific/Rarotonga":{"lat":"-21.2349911","lng":"-159.77872366478397","utcOffset":-10,"continent":"Pacific","place":"Rarotonga"},"America/Recife":{"lat":"-8.0584933","lng":"-34.8848193","utcOffset":-3,"continent":"America","place":"Recife"},"America/Regina":{"lat":"50.44876","lng":"-104.61731","utcOffset":-6,"continent":"America","place":"Regina"},"America/Resolute":{"lat":"74.697029","lng":"-94.840851","utcOffset":-5,"continent":"America","place":"Resolute"},"Indian/Reunion":{"lat":"-21.130737949999997","lng":"55.536480112992315","utcOffset":4,"continent":"Indian","place":"Reunion"},"Atlantic/Reykjavik":{"lat":"64.145981","lng":"-21.9422367","utcOffset":0,"continent":"Atlantic","place":"Reykjavik"},"Europe/Riga":{"lat":"56.9493977","lng":"24.1051846","utcOffset":3,"continent":"Europe","place":"Riga"},"America/Rio_Branco":{"lat":"-9.9765362","lng":"-67.8220778","utcOffset":-5,"continent":"America","place":"Rio Branco"},"America/Argentina/Rio_Gallegos":{"lat":"-51.64607595","lng":"-69.26322885452636","utcOffset":-3,"continent":"America/Argentina","place":"Rio Gallegos"},"Asia/Riyadh":{"lat":"24.638916","lng":"46.7160104","utcOffset":3,"continent":"Asia","place":"Riyadh"},"Europe/Rome":{"lat":"41.8933203","lng":"12.4829321","utcOffset":2,"continent":"Europe","place":"Rome"},"Antarctica/Rothera":{"lat":null,"lng":null,"utcOffset":-3,"continent":"Antarctica","place":"Rothera"},"Asia/Sakhalin":{"lat":"50.15947595","lng":"143.02644118600944","utcOffset":-13,"continent":"Asia","place":"Sakhalin"},"America/Argentina/Salta":{"lat":"-24.7892946","lng":"-65.4103194","utcOffset":-3,"continent":"America/Argentina","place":"Salta"},"Europe/Samara":{"lat":"53.198627","lng":"50.113987","utcOffset":4,"continent":"Europe","place":"Samara"},"Asia/Samarkand":{"lat":"39.6550017","lng":"66.9756954","utcOffset":5,"continent":"Asia","place":"Samarkand"},"America/Santarem":{"lat":"39.2363637","lng":"-8.6867081","utcOffset":-3,"continent":"America","place":"Santarem"},"America/Santiago":{"lat":"-33.4377756","lng":"-70.6504502","utcOffset":-4,"continent":"America","place":"Santiago"},"America/Santo_Domingo":{"lat":"18.4801972","lng":"-69.942111","utcOffset":-4,"continent":"America","place":"Santo Domingo"},"America/Argentina/San_Juan":{"lat":"18.465299","lng":"-66.116666","utcOffset":-3,"continent":"America/Argentina","place":"San Juan"},"America/Argentina/San_Luis":{"lat":"-33.3019696","lng":"-66.3369903","utcOffset":-3,"continent":"America/Argentina","place":"San Luis"},"America/Sao_Paulo":{"lat":"-23.5506507","lng":"-46.6333824","utcOffset":-3,"continent":"America","place":"Sao Paulo"},"Africa/Sao_Tome":{"lat":"0.3389242","lng":"6.7313031","utcOffset":0,"continent":"Africa","place":"Sao Tome"},"Europe/Saratov":{"lat":"51.53952715","lng":"46.03338615081432","utcOffset":4,"continent":"Europe","place":"Saratov"},"America/Scoresbysund":{"lat":"70.4850588","lng":"-21.9641992","utcOffset":0,"continent":"America","place":"Scoresbysund"},"Asia/Seoul":{"lat":"37.5666791","lng":"126.9782914","utcOffset":-15,"continent":"Asia","place":"Seoul"},"Asia/Shanghai":{"lat":"31.2322758","lng":"121.4692071","utcOffset":-16,"continent":"Asia","place":"Shanghai"},"Europe/Simferopol":{"lat":"44.9521459","lng":"34.1024858","utcOffset":3,"continent":"Europe","place":"Simferopol"},"Asia/Singapore":{"lat":"1.2899175","lng":"103.8519072","utcOffset":-16,"continent":"Asia","place":"Singapore"},"America/Sitka":{"lat":"57.0524973","lng":"-135.337612","utcOffset":-8,"continent":"America","place":"Sitka"},"Europe/Sofia":{"lat":"42.6978634","lng":"23.3221789","utcOffset":3,"continent":"Europe","place":"Sofia"},"Atlantic/South_Georgia":{"lat":"-54.43393195","lng":"-36.49465186334665","utcOffset":-2,"continent":"Atlantic","place":"South Georgia"},"Asia/Srednekolymsk":{"lat":"67.4659193","lng":"153.709985724734","utcOffset":-13,"continent":"Asia","place":"Srednekolymsk"},"Atlantic/Stanley":{"lat":"-51.6950575","lng":"-57.8491693","utcOffset":-3,"continent":"Atlantic","place":"Stanley"},"Europe/Stockholm":{"lat":"59.3251172","lng":"18.0710935","utcOffset":2,"continent":"Europe","place":"Stockholm"},"America/St_Johns":{"lat":"34.5058698","lng":"-109.360932","utcOffset":-2.5,"continent":"America","place":"St Johns"},"America/Swift_Current":{"lat":"50.2849138","lng":"-107.7984496","utcOffset":-6,"continent":"America","place":"Swift Current"},"Australia/Sydney":{"lat":"-33.8698439","lng":"151.2082848","utcOffset":-14,"continent":"Australia","place":"Sydney"},"Antarctica/Syowa":{"lat":null,"lng":null,"utcOffset":3,"continent":"Antarctica","place":"Syowa"},"Pacific/Tahiti":{"lat":"-17.68734395","lng":"-149.44516811423745","utcOffset":-10,"continent":"Pacific","place":"Tahiti"},"Asia/Taipei":{"lat":"25.0375198","lng":"121.5636796","utcOffset":-16,"continent":"Asia","place":"Taipei"},"Europe/Tallinn":{"lat":"59.4372155","lng":"24.7453688","utcOffset":3,"continent":"Europe","place":"Tallinn"},"Pacific/Tarawa":{"lat":"11.5899914","lng":"3.9702915","utcOffset":-12,"continent":"Pacific","place":"Tarawa"},"Asia/Tashkent":{"lat":"41.3123363","lng":"69.2787079","utcOffset":5,"continent":"Asia","place":"Tashkent"},"Asia/Tbilisi":{"lat":"41.6934591","lng":"44.8014495","utcOffset":4,"continent":"Asia","place":"Tbilisi"},"America/Tegucigalpa":{"lat":"14.1057433","lng":"-87.2040052","utcOffset":-6,"continent":"America","place":"Tegucigalpa"},"Asia/Tehran":{"lat":"35.6892523","lng":"51.3896004","utcOffset":4.5,"continent":"Asia","place":"Tehran"},"America/Indiana/Tell_City":{"lat":"37.9514447","lng":"-86.7677663","utcOffset":-5,"continent":"America/Indiana","place":"Tell City"},"Asia/Thimphu":{"lat":"27.4713546","lng":"89.6336729","utcOffset":-18,"continent":"Asia","place":"Thimphu"},"America/Thule":{"lat":"77.4686357","lng":"-69.2222746","utcOffset":-3,"continent":"America","place":"Thule"},"America/Thunder_Bay":{"lat":"48.406414","lng":"-89.259796","utcOffset":-4,"continent":"America","place":"Thunder Bay"},"America/Tijuana":{"lat":"32.5010188","lng":"-116.964662","utcOffset":-7,"continent":"America","place":"Tijuana"},"Europe/Tirane":{"lat":"41.3281482","lng":"19.8184435","utcOffset":2,"continent":"Europe","place":"Tirane"},"Asia/Tokyo":{"lat":"35.6828387","lng":"139.7594549","utcOffset":-15,"continent":"Asia","place":"Tokyo"},"Asia/Tomsk":{"lat":"56.488712","lng":"84.952324","utcOffset":-17,"continent":"Asia","place":"Tomsk"},"Pacific/Tongatapu":{"lat":"-21.1678253","lng":"-175.27386910577957","utcOffset":-11,"continent":"Pacific","place":"Tongatapu"},"America/Toronto":{"lat":"43.6534817","lng":"-79.3839347","utcOffset":-4,"continent":"America","place":"Toronto"},"Africa/Tripoli":{"lat":"32.896672","lng":"13.1777923","utcOffset":2,"continent":"Africa","place":"Tripoli"},"Antarctica/Troll":{"lat":"-72.0116589","lng":"2.5355412","utcOffset":2,"continent":"Antarctica","place":"Troll"},"America/Argentina/Tucuman":{"lat":"-26.8303703","lng":"-65.2038133","utcOffset":-3,"continent":"America/Argentina","place":"Tucuman"},"Africa/Tunis":{"lat":"36.8002068","lng":"10.1857757","utcOffset":1,"continent":"Africa","place":"Tunis"},"Asia/Ulaanbaatar":{"lat":"47.9184676","lng":"106.9177016","utcOffset":-16,"continent":"Asia","place":"Ulaanbaatar"},"Europe/Ulyanovsk":{"lat":"54.3107593","lng":"48.3642771","utcOffset":4,"continent":"Europe","place":"Ulyanovsk"},"Asia/Urumqi":{"lat":"43.419754","lng":"87.319461","utcOffset":-18,"continent":"Asia","place":"Urumqi"},"America/Argentina/Ushuaia":{"lat":"-54.8069332","lng":"-68.3073246","utcOffset":-3,"continent":"America/Argentina","place":"Ushuaia"},"Asia/Ust-Nera":{"lat":"64.566376","lng":"143.237839","utcOffset":-14,"continent":"Asia","place":"Ust-Nera"},"Europe/Uzhgorod":{"lat":"48.6223732","lng":"22.3022569","utcOffset":3,"continent":"Europe","place":"Uzhgorod"},"America/Vancouver":{"lat":"49.2608724","lng":"-123.113952","utcOffset":-7,"continent":"America","place":"Vancouver"},"America/Indiana/Vevay":{"lat":"38.7478401","lng":"-85.0671725","utcOffset":-4,"continent":"America/Indiana","place":"Vevay"},"Europe/Vienna":{"lat":"48.2083537","lng":"16.3725042","utcOffset":2,"continent":"Europe","place":"Vienna"},"Europe/Vilnius":{"lat":"54.6870458","lng":"25.2829111","utcOffset":3,"continent":"Europe","place":"Vilnius"},"America/Indiana/Vincennes":{"lat":"48.8474508","lng":"2.4396714","utcOffset":-4,"continent":"America/Indiana","place":"Vincennes"},"Asia/Vladivostok":{"lat":"43.1150678","lng":"131.8855768","utcOffset":-14,"continent":"Asia","place":"Vladivostok"},"Europe/Volgograd":{"lat":"48.7081906","lng":"44.5153353","utcOffset":3,"continent":"Europe","place":"Volgograd"},"Antarctica/Vostok":{"lat":"-10.0620702","lng":"-152.31258164405466","utcOffset":-18,"continent":"Antarctica","place":"Vostok"},"Pacific/Wake":{"lat":"19.28988935","lng":"166.64921739111432","utcOffset":-12,"continent":"Pacific","place":"Wake"},"Pacific/Wallis":{"lat":"29.6313486","lng":"-96.0652362","utcOffset":-12,"continent":"Pacific","place":"Wallis"},"Europe/Warsaw":{"lat":"52.2319581","lng":"21.0067249","utcOffset":2,"continent":"Europe","place":"Warsaw"},"America/Whitehorse":{"lat":"60.721571","lng":"-135.054932","utcOffset":-7,"continent":"America","place":"Whitehorse"},"America/Indiana/Winamac":{"lat":"41.0514299","lng":"-86.6030648","utcOffset":-4,"continent":"America/Indiana","place":"Winamac"},"Africa/Windhoek":{"lat":"-22.5776104","lng":"17.0772739","utcOffset":2,"continent":"Africa","place":"Windhoek"},"America/Winnipeg":{"lat":"49.8955367","lng":"-97.1384584","utcOffset":-5,"continent":"America","place":"Winnipeg"},"America/Yakutat":{"lat":"59.5472853","lng":"-139.7269785","utcOffset":-8,"continent":"America","place":"Yakutat"},"Asia/Yakutsk":{"lat":"62.0274078","lng":"129.7319787","utcOffset":-15,"continent":"Asia","place":"Yakutsk"},"Asia/Yangon":{"lat":"16.7967129","lng":"96.1609916","utcOffset":-17.5,"continent":"Asia","place":"Yangon"},"Asia/Yekaterinburg":{"lat":"56.839104","lng":"60.60825","utcOffset":5,"continent":"Asia","place":"Yekaterinburg"},"America/Yellowknife":{"lat":"62.4540807","lng":"-114.377385","utcOffset":-6,"continent":"America","place":"Yellowknife"},"Asia/Yerevan":{"lat":"40.1776245","lng":"44.5126174","utcOffset":4,"continent":"Asia","place":"Yerevan"},"Europe/Zaporozhye":{"lat":"47.8507859","lng":"35.1182867","utcOffset":3,"continent":"Europe","place":"Zaporozhye"},"Europe/Zurich":{"lat":"47.3744489","lng":"8.5410422","utcOffset":2,"continent":"Europe","place":"Zurich"}}
